{"type":"FeatureCollection", "features": [
{"type":"Feature","geometry":{"type":"Point","coordinates":[2.3456696,48.8592184,0]},"properties":{"name":"59 Rivoli","styleUrl":"#icon-1899-0288D1-nodesc","icon-opacity":1,"icon-color":"#0288d1","icon-scale":1,"icon-offset":[32,64],"icon-offset-units":["pixels","insetPixels"],"icon":"https://www.gstatic.com/mapspro/images/stock/503-wht-blank_maps.png"}},
{"type":"Feature","geometry":{"type":"Point","coordinates":[2.3489072,48.8580685,0]},"properties":{"name":"Tour Saint-Jacques","styleUrl":"#icon-1899-0288D1-nodesc","icon-opacity":1,"icon-color":"#0288d1","icon-scale":1,"icon-offset":[32,64],"icon-offset-units":["pixels","insetPixels"],"icon":"https://www.gstatic.com/mapspro/images/stock/503-wht-blank_maps.png"}},
{"type":"Feature","geometry":{"type":"Point","coordinates":[2.3508751,48.859126,0]},"properties":{"name":"Chiesa di Saint-Merri","styleUrl":"#icon-1670-0288D1-nodesc","icon-opacity":1,"icon-color":"#0288d1","icon-scale":1,"icon":"https://www.gstatic.com/mapspro/images/stock/503-wht-blank_maps.png"}},
{"type":"Feature","geometry":{"type":"Point","coordinates":[2.351546,48.859478,0]},"properties":{"name":"Fontana Stravinsky","styleUrl":"#icon-1580-0288D1-nodesc","icon-opacity":1,"icon-color":"#0288d1","icon-scale":1,"icon":"https://www.gstatic.com/mapspro/images/stock/503-wht-blank_maps.png"}},
{"type":"Feature","geometry":{"type":"Point","coordinates":[2.3544587,48.8556133,0]},"properties":{"name":"Chiesa dei Santi Gervasio e Protasio","styleUrl":"#icon-1670-0288D1-nodesc","icon-opacity":1,"icon-color":"#0288d1","icon-scale":1,"icon":"https://www.gstatic.com/mapspro/images/stock/503-wht-blank_maps.png"}},
{"type":"Feature","geometry":{"type":"Point","coordinates":[2.355261,48.8553427,0]},"properties":{"name":"Rue des Barres","styleUrl":"#icon-1535-A52714-nodesc","icon-opacity":1,"icon-color":"#a52714","icon-scale":1,"icon":"https://www.gstatic.com/mapspro/images/stock/503-wht-blank_maps.png"}},
{"type":"Feature","geometry":{"type":"Point","coordinates":[2.3562052,48.8549507,0]},"properties":{"name":"Memoriale della Shoah","styleUrl":"#icon-1636-F9A825-nodesc","icon-opacity":1,"icon-color":"#f9a825","icon-scale":1,"icon":"https://www.gstatic.com/mapspro/images/stock/503-wht-blank_maps.png"}},
{"type":"Feature","geometry":{"type":"Point","coordinates":[2.3329246,48.861723,0]},"properties":{"name":"Arco di Trionfo del Carosello","styleUrl":"#icon-1899-0288D1-nodesc","icon-opacity":1,"icon-color":"#0288d1","icon-scale":1,"icon-offset":[32,64],"icon-offset-units":["pixels","insetPixels"],"icon":"https://www.gstatic.com/mapspro/images/stock/503-wht-blank_maps.png"}},
{"type":"Feature","geometry":{"type":"Point","coordinates":[2.3394854,48.8663533,0]},"properties":{"name":"Galerie Vivienne","styleUrl":"#icon-1899-0288D1-nodesc","icon-opacity":1,"icon-color":"#0288d1","icon-scale":1,"icon-offset":[32,64],"icon-offset-units":["pixels","insetPixels"],"icon":"https://www.gstatic.com/mapspro/images/stock/503-wht-blank_maps.png"}},
{"type":"Feature","geometry":{"type":"Point","coordinates":[2.352245,48.860642,0]},"properties":{"name":"Centro Pompidou di Parigi","description":"con vista panoramica","styleUrl":"#icon-1636-F9A825","icon-opacity":1,"icon-color":"#f9a825","icon-scale":1,"icon":"https://www.gstatic.com/mapspro/images/stock/503-wht-blank_maps.png"}},
{"type":"Feature","geometry":{"type":"Point","coordinates":[2.3587005,48.8614056,0]},"properties":{"name":"Museum of Hunting and Nature","styleUrl":"#icon-1636-F9A825-nodesc","icon-opacity":1,"icon-color":"#f9a825","icon-scale":1,"icon":"https://www.gstatic.com/mapspro/images/stock/503-wht-blank_maps.png"}},
{"type":"Feature","geometry":{"type":"Point","coordinates":[2.3671263,48.8689404,0]},"properties":{"name":"Canal Saint-Martin","styleUrl":"#icon-1535-0288D1-nodesc","icon-opacity":1,"icon-color":"#0288d1","icon-scale":1,"icon":"https://www.gstatic.com/mapspro/images/stock/503-wht-blank_maps.png"}},
{"type":"Feature","geometry":{"type":"Point","coordinates":[2.3691443,48.8531827,0]},"properties":{"name":"Piazza della Bastiglia","styleUrl":"#icon-1535-0288D1-nodesc","icon-opacity":1,"icon-color":"#0288d1","icon-scale":1,"icon":"https://www.gstatic.com/mapspro/images/stock/503-wht-blank_maps.png"}},
{"type":"Feature","geometry":{"type":"Point","coordinates":[2.3620004,48.862755,0]},"properties":{"name":"Marché des Enfants Rouges","styleUrl":"#icon-1899-0288D1-nodesc","icon-opacity":1,"icon-color":"#0288d1","icon-scale":1,"icon-offset":[32,64],"icon-offset-units":["pixels","insetPixels"],"icon":"https://www.gstatic.com/mapspro/images/stock/503-wht-blank_maps.png"}},
{"type":"Feature","geometry":{"type":"Point","coordinates":[2.3701889,48.8464552,0]},"properties":{"name":"Rue Crémieux","styleUrl":"#icon-1899-0288D1-nodesc","icon-opacity":1,"icon-color":"#0288d1","icon-scale":1,"icon-offset":[32,64],"icon-offset-units":["pixels","insetPixels"],"icon":"https://www.gstatic.com/mapspro/images/stock/503-wht-blank_maps.png"}},
{"type":"Feature","geometry":{"type":"Point","coordinates":[2.3714863,48.8494548,0]},"properties":{"name":"Coulée verte René-Dumont","styleUrl":"#icon-1899-0288D1-nodesc","icon-opacity":1,"icon-color":"#0288d1","icon-scale":1,"icon-offset":[32,64],"icon-offset-units":["pixels","insetPixels"],"icon":"https://www.gstatic.com/mapspro/images/stock/503-wht-blank_maps.png"}},
{"type":"Feature","geometry":{"type":"Point","coordinates":[2.3934725,48.861472,0]},"properties":{"name":"Cimitero del Père-Lachaise","description":"Qui si trovano le tombe di Balzac, Oscar Wilde, Delacroix, Modigliani, Jim Morrison e Chopin","styleUrl":"#icon-1670-0288D1","icon-opacity":1,"icon-color":"#0288d1","icon-scale":1,"icon":"https://www.gstatic.com/mapspro/images/stock/503-wht-blank_maps.png"}},
{"type":"Feature","geometry":{"type":"Point","coordinates":[2.3471303,48.8525632,0]},"properties":{"name":"Shakespeare and Company","styleUrl":"#icon-1577-0288D1-nodesc","icon-opacity":1,"icon-color":"#0288d1","icon-scale":1,"icon":"https://www.gstatic.com/mapspro/images/stock/503-wht-blank_maps.png"}},
{"type":"Feature","geometry":{"type":"Point","coordinates":[2.3437736,48.8532372,0]},"properties":{"name":"Fontaine Saint-Michel","styleUrl":"#icon-1580-0288D1-nodesc","icon-opacity":1,"icon-color":"#0288d1","icon-scale":1,"icon":"https://www.gstatic.com/mapspro/images/stock/503-wht-blank_maps.png"}},
{"type":"Feature","geometry":{"type":"Point","coordinates":[2.338578,48.8848037,0]},"properties":{"name":"Muro dei ti amo","styleUrl":"#icon-1899-0288D1-nodesc","icon-opacity":1,"icon-color":"#0288d1","icon-scale":1,"icon-offset":[32,64],"icon-offset-units":["pixels","insetPixels"],"icon":"https://www.gstatic.com/mapspro/images/stock/503-wht-blank_maps.png"}},
{"type":"Feature","geometry":{"type":"Point","coordinates":[2.3598969,48.8261675,0]},"properties":{"name":"Street Art in tutto il XIII arrondissement","styleUrl":"#icon-1535-A52714-nodesc","icon-opacity":1,"icon-color":"#a52714","icon-scale":1,"icon":"https://www.gstatic.com/mapspro/images/stock/503-wht-blank_maps.png"}},
{"type":"Feature","geometry":{"type":"Point","coordinates":[2.3480897,48.8465392,0]},"properties":{"name":"Chiesa di Santo Stefano del Monte","styleUrl":"#icon-1670-0288D1-nodesc","icon-opacity":1,"icon-color":"#0288d1","icon-scale":1,"icon":"https://www.gstatic.com/mapspro/images/stock/503-wht-blank_maps.png"}},
{"type":"Feature","geometry":{"type":"Point","coordinates":[2.3371292,48.8873961,0]},"properties":{"name":"Moulin de la Galette","styleUrl":"#icon-1899-0288D1-nodesc","icon-opacity":1,"icon-color":"#0288d1","icon-scale":1,"icon-offset":[32,64],"icon-offset-units":["pixels","insetPixels"],"icon":"https://www.gstatic.com/mapspro/images/stock/503-wht-blank_maps.png"}},
{"type":"Feature","geometry":{"type":"Point","coordinates":[2.2361121,48.8925978,0]},"properties":{"name":"Arco de La Défense","styleUrl":"#icon-1899-0288D1-nodesc","icon-opacity":1,"icon-color":"#0288d1","icon-scale":1,"icon-offset":[32,64],"icon-offset-units":["pixels","insetPixels"],"icon":"https://www.gstatic.com/mapspro/images/stock/503-wht-blank_maps.png"}},
{"type":"Feature","geometry":{"type":"Point","coordinates":[2.3384826,48.8673812,0]},"properties":{"name":"Biblioteca nazionale di Francia - Sito Richelieu","styleUrl":"#icon-1636-F9A825-nodesc","icon-opacity":1,"icon-color":"#f9a825","icon-scale":1,"icon":"https://www.gstatic.com/mapspro/images/stock/503-wht-blank_maps.png"}},
{"type":"Feature","geometry":{"type":"Point","coordinates":[2.3219514,48.8421379,0]},"properties":{"name":"Tour Montparnasse","styleUrl":"#icon-1535-0288D1-nodesc","icon-opacity":1,"icon-color":"#0288d1","icon-scale":1,"icon":"https://www.gstatic.com/mapspro/images/stock/503-wht-blank_maps.png"}},
{"type":"Feature","geometry":{"type":"Point","coordinates":[2.3139467,48.887341,0]},"properties":{"name":"quartiere Batignolles","styleUrl":"#icon-1899-0288D1-nodesc","icon-opacity":1,"icon-color":"#0288d1","icon-scale":1,"icon-offset":[32,64],"icon-offset-units":["pixels","insetPixels"],"icon":"https://www.gstatic.com/mapspro/images/stock/503-wht-blank_maps.png"}},
{"type":"Feature","geometry":{"type":"Point","coordinates":[2.3938225,48.8810751,0]},"properties":{"name":"Quartier de la Mouzaïa","styleUrl":"#icon-1899-0288D1-nodesc","icon-opacity":1,"icon-color":"#0288d1","icon-scale":1,"icon-offset":[32,64],"icon-offset-units":["pixels","insetPixels"],"icon":"https://www.gstatic.com/mapspro/images/stock/503-wht-blank_maps.png"}},
{"type":"Feature","geometry":{"type":"Point","coordinates":[2.3616996,48.8430956,0]},"properties":{"name":"Dodo Manège","styleUrl":"#icon-1899-0288D1-nodesc","icon-opacity":1,"icon-color":"#0288d1","icon-scale":1,"icon-offset":[32,64],"icon-offset-units":["pixels","insetPixels"],"icon":"https://www.gstatic.com/mapspro/images/stock/503-wht-blank_maps.png"}},
{"type":"Feature","geometry":{"type":"Point","coordinates":[2.3820075,48.8948542,0]},"properties":{"name":"Little Belt","description":"ferrovia vecchia abbandonata ma ci sono i tossici","styleUrl":"#icon-1899-0288D1","icon-opacity":1,"icon-color":"#0288d1","icon-scale":1,"icon-offset":[32,64],"icon-offset-units":["pixels","insetPixels"],"icon":"https://www.gstatic.com/mapspro/images/stock/503-wht-blank_maps.png"}},
{"type":"Feature","geometry":{"type":"Point","coordinates":[2.3499021,48.8529682,0]},"properties":{"name":"Cattedrale di Notre-Dame","styleUrl":"#icon-1670-0288D1-nodesc","icon-opacity":1,"icon-color":"#0288d1","icon-scale":1,"icon":"https://www.gstatic.com/mapspro/images/stock/503-wht-blank_maps.png"}},
{"type":"Feature","geometry":{"type":"Point","coordinates":[2.3380417,48.8875533,0]},"properties":{"name":"Le Passe-Muraille","styleUrl":"#icon-1899-0288D1-nodesc","icon-opacity":1,"icon-color":"#0288d1","icon-scale":1,"icon-offset":[32,64],"icon-offset-units":["pixels","insetPixels"],"icon":"https://www.gstatic.com/mapspro/images/stock/503-wht-blank_maps.png"}},
{"type":"Feature","geometry":{"type":"Point","coordinates":[2.2521865,48.8463076,0]},"properties":{"name":"Giardino delle serre d'Auteuil","styleUrl":"#icon-1899-0288D1-nodesc","icon-opacity":1,"icon-color":"#0288d1","icon-scale":1,"icon-offset":[32,64],"icon-offset-units":["pixels","insetPixels"],"icon":"https://www.gstatic.com/mapspro/images/stock/503-wht-blank_maps.png"}},
{"type":"Feature","geometry":{"type":"Point","coordinates":[2.3617895,48.8685977,0]},"properties":{"name":"30 Rue René Boulanger","styleUrl":"#icon-1517-FFEA00-nodesc","icon-opacity":1,"icon-color":"#ffea00","icon-scale":1,"icon":"https://www.gstatic.com/mapspro/images/stock/503-wht-blank_maps.png"}},
{"type":"Feature","geometry":{"type":"Point","coordinates":[2.371188,48.8556922,0]},"properties":{"name":"5 Rue Sedaine","description":"Old Fashioned","styleUrl":"#icon-1517-FFEA00","icon-opacity":1,"icon-color":"#ffea00","icon-scale":1,"icon":"https://www.gstatic.com/mapspro/images/stock/503-wht-blank_maps.png"}},
{"type":"Feature","geometry":{"type":"Point","coordinates":[2.3536501,48.8718637,0]},"properties":{"name":"51 Rue du Faubourg Saint-Denis","description":"cocktail a base di liquori francesi “dimenticati”.","styleUrl":"#icon-1517-FFEA00","icon-opacity":1,"icon-color":"#ffea00","icon-scale":1,"icon":"https://www.gstatic.com/mapspro/images/stock/503-wht-blank_maps.png"}},
{"type":"Feature","geometry":{"type":"Point","coordinates":[2.3649962,48.8647628,0]},"properties":{"name":"60 Rue Charlot","styleUrl":"#icon-1517-FFEA00-nodesc","icon-opacity":1,"icon-color":"#ffea00","icon-scale":1,"icon":"https://www.gstatic.com/mapspro/images/stock/503-wht-blank_maps.png"}},
{"type":"Feature","geometry":{"type":"Point","coordinates":[2.3393262,48.8671334,0]},"properties":{"name":"6 Rue Vivienne nel retro del ristorante Daroco","description":"cocktail sperimentali, creati dal celebre mixologist Nico de Soto.","styleUrl":"#icon-1517-FFEA00","icon-opacity":1,"icon-color":"#ffea00","icon-scale":1,"icon":"https://www.gstatic.com/mapspro/images/stock/503-wht-blank_maps.png"}},
{"type":"Feature","geometry":{"type":"Point","coordinates":[2.3743773,48.8443038,0]},"properties":{"name":"Gare de Lyon","styleUrl":"#icon-1716-9C27B0-nodesc","icon-opacity":1,"icon-color":"#9c27b0","icon-scale":1,"icon":"https://www.gstatic.com/mapspro/images/stock/503-wht-blank_maps.png"}},
{"type":"Feature","geometry":{"type":"Point","coordinates":[2.2887502,48.8505353,0]},"properties":{"name":"30 Rue St Charles","styleUrl":"#icon-1602-9C27B0-nodesc","icon-opacity":1,"icon-color":"#9c27b0","icon-scale":1,"icon":"https://www.gstatic.com/mapspro/images/stock/503-wht-blank_maps.png"}}
]}